[
  {
    "name": "Stalet",
    "latitude": 62.23332712,
    "longitude": 5.17768582
  },
  {
    "name": "Skjeggefluda",
    "latitude": 62.27317369,
    "longitude": 5.31497614
  },
  {
    "name": "Flavaer lt",
    "latitude": 62.31207991,
    "longitude": 5.55963892
  },
  {
    "name": "Stabben lt",
    "latitude": 62.31136037,
    "longitude": 5.57735484
  },
  {
    "name": "Klubben lt",
    "latitude": 62.30878821,
    "longitude": 5.59910369
  },
  {
    "name": "Klubben lt",
    "latitude": 62.30835732,
    "longitude": 5.60956199
  },
  {
    "name": "Tronden lt",
    "latitude": 62.31206559,
    "longitude": 5.62744445
  },
  {
    "name": "Heroyhunden lt",
    "latitude": 62.31753428,
    "longitude": 5.67146876
  },
  {
    "name": "Royrasundet",
    "latitude": 62.31933924,
    "longitude": 5.72128209
  },
  {
    "name": "Teigesund lt",
    "latitude": 62.32066667,
    "longitude": 5.73481667
  },
  {
    "name": "Teigesund lt",
    "latitude": 62.32205636,
    "longitude": 5.74885378
  },
  {
    "name": "Brennholmen lt 6.9 m",
    "latitude": 62.32851096,
    "longitude": 5.7511608
  },
  {
    "name": "Torvikhomen lt 6.9 m",
    "latitude": 62.33809314,
    "longitude": 5.73856845
  },
  {
    "name": "Byholmane",
    "latitude": 62.35952667,
    "longitude": 5.77314485
  },
  {
    "name": "Vattoya",
    "latitude": 62.36509477,
    "longitude": 5.7911294
  },
  {
    "name": "Vattoy lt",
    "latitude": 62.37268618,
    "longitude": 5.79730202
  },
  {
    "name": "Flo lt",
    "latitude": 62.39371089,
    "longitude": 5.80692878
  },
  {
    "name": "Flo",
    "latitude": 62.40752333,
    "longitude": 5.82996009
  },
  {
    "name": "Kleggen",
    "latitude": 62.4185445,
    "longitude": 5.85683644
  },
  {
    "name": "Breisundet",
    "latitude": 62.42712612,
    "longitude": 5.89034092
  },
  {
    "name": "Eltraneset lt",
    "latitude": 62.44618084,
    "longitude": 6.05318243
  },
  {
    "name": "Hessafjorden",
    "latitude": 62.44636362,
    "longitude": 6.11197795
  },
  {
    "name": "Rognholmen lt",
    "latitude": 62.4551797,
    "longitude": 6.17622405
  },
  {
    "name": "Gasholmen",
    "latitude": 62.45634169,
    "longitude": 6.20368526
  },
  {
    "name": "Bogneset",
    "latitude": 62.45173133,
    "longitude": 6.24948118
  },
  {
    "name": "Spjelkavik",
    "latitude": 62.45783276,
    "longitude": 6.3449976
  }
]