[
  {
    "name": "Hollenderbaen - change to channel 19 - Horten VTS",
    "latitude": 59.16198333,
    "longitude": 10.65851142
  },
  {
    "name": "Gullholmen",
    "latitude": 59.43414435,
    "longitude": 10.56165578
  },
  {
    "name": "Molen",
    "latitude": 59.4729177,
    "longitude": 10.49530413
  },
  {
    "name": "Rodtangen",
    "latitude": 59.52711957,
    "longitude": 10.40955338
  },
  {
    "name": "Holtnesodden",
    "latitude": 59.54047058,
    "longitude": 10.40587543
  },
  {
    "name": "Kroksberget",
    "latitude": 59.56051055,
    "longitude": 10.40997177
  },
  {
    "name": "Bjorneskjaer",
    "latitude": 59.5905166,
    "longitude": 10.42927185
  },
  {
    "name": "Svelvikrennen NV and NE lt",
    "latitude": 59.60445093,
    "longitude": 10.41593632
  },
  {
    "name": "Batterioyen",
    "latitude": 59.60882855,
    "longitude": 10.41150105
  },
  {
    "name": "Verksoya",
    "latitude": 59.61191622,
    "longitude": 10.4107735
  },
  {
    "name": "Ryggen",
    "latitude": 59.61674295,
    "longitude": 10.41203703
  },
  {
    "name": "Blindeskjaer",
    "latitude": 59.62544505,
    "longitude": 10.42009608
  },
  {
    "name": "Steinsbraten",
    "latitude": 59.68305482,
    "longitude": 10.38712103
  },
  {
    "name": "Drammen",
    "latitude": 59.72725012,
    "longitude": 10.2725091
  }
]