[
  {
    "name": "Fedjeosen",
    "latitude": 60.74677877,
    "longitude": 4.65135633
  },
  {
    "name": "Fedjeosen (2) pilot boarding",
    "latitude": 60.7351497,
    "longitude": 4.72259783
  },
  {
    "name": "Rubbegarnstana",
    "latitude": 60.67381588,
    "longitude": 4.83151667
  },
  {
    "name": "Stureholmen",
    "latitude": 60.61405,
    "longitude": 4.88266667
  },
  {
    "name": "report to Fedje VTS on channel 71",
    "latitude": 60.52014703,
    "longitude": 4.9477569
  },
  {
    "name": "Kalvsoyflua",
    "latitude": 60.45531128,
    "longitude": 5.00697693
  },
  {
    "name": "Kalvanes",
    "latitude": 60.43352952,
    "longitude": 5.02947752
  },
  {
    "name": "Sora Rotoyna",
    "latitude": 60.41346213,
    "longitude": 5.06605922
  },
  {
    "name": "Midtholmen",
    "latitude": 60.40771068,
    "longitude": 5.10082903
  },
  {
    "name": "Faeroy lt",
    "latitude": 60.4015744,
    "longitude": 5.11947872
  },
  {
    "name": "Saltskoodden",
    "latitude": 60.39668422,
    "longitude": 5.14297193
  },
  {
    "name": "Knappen",
    "latitude": 60.39039552,
    "longitude": 5.15793883
  },
  {
    "name": "Hjeltaskjeret lt",
    "latitude": 60.38519423,
    "longitude": 5.1659437
  },
  {
    "name": "Hjeltaskjeret lt",
    "latitude": 60.38408099,
    "longitude": 5.17555945
  },
  {
    "name": "Tollneset",
    "latitude": 60.3861014,
    "longitude": 5.19007799
  },
  {
    "name": "Askoy bridge",
    "latitude": 60.39461667,
    "longitude": 5.21598333
  },
  {
    "name": "Kvarven",
    "latitude": 60.40115,
    "longitude": 5.23995
  },
  {
    "name": "Bergen",
    "latitude": 60.40105,
    "longitude": 5.27515
  }
]